% program   : RTKPOST demo5 b34k
% inp file  : C:\Users\zheng\Desktop\AAE6102_Laboratory-main\GNSS Data\UrbanNav - Medium\20210521.medium-urban.whampoa.ublox.f9p.obs
% inp file  : C:\Users\zheng\Desktop\AAE6102_Laboratory-main\GNSS Data\UrbanNav - Medium\hksc141g.21o
% inp file  : C:\Users\zheng\Desktop\AAE6102_Laboratory-main\GNSS Data\UrbanNav - Medium\hksc141g.21g
% inp file  : C:\Users\zheng\Desktop\AAE6102_Laboratory-main\GNSS Data\UrbanNav - Medium\hksc141g.21l
% inp file  : C:\Users\zheng\Desktop\AAE6102_Laboratory-main\GNSS Data\UrbanNav - Medium\hksc141g.21n
% obs start : 2021/05/21 06:29:02.0 GPST (week2158 455342.0s)
% obs end   : 2021/05/21 06:54:39.0 GPST (week2158 456879.0s)
% pos mode  : Kinematic
% freqs     : L1+L2/E5b+L5
% solution  : Forward
% elev mask : 0.0 deg
% dynamics  : on
% tidecorr  : off
% ionos opt : Broadcast
% tropo opt : Saastamoinen
% ephemeris : Broadcast
% navi sys  : GPS GLONASS Galileo QZSS BDS NavIC SBAS
% amb res   : Fix and Hold
% amb glo   : Fix and Hold
% val thres : 3.0
% antenna1  :                       ( 0.0000  0.0000  0.0000)
% antenna2  :                       ( 0.0000  0.0000  0.0000)
% ref pos   : 22.322172082  114.141187963    20.2386
%
% (lat/lon/height=WGS84/ellipsoidal,Q=1:fix,2:float,3:sbas,4:dgps,5:single,6:ppp,ns=# of satellites)
%  GPST          latitude(deg) longitude(deg)  height(m)   Q  ns   sdn(m)   sde(m)   sdu(m)  sdne(m)  sdeu(m)  sdun(m) age(s)  ratio
2158 455342.000   22.301558420  114.190300420     3.7071   2  12   0.9203   1.0584   2.3478  -0.0678   0.4839   0.3474   0.00    0.0
2158 455343.000   22.301558968  114.190299858     3.8227   2  14   0.6641   0.7642   1.6908   0.1037   0.3699   0.2377   0.00    0.0
2158 455344.000   22.301560904  114.190298686     4.2141   2  13   0.5489   0.6310   1.3968   0.0912   0.3141   0.2030   0.00    0.0
2158 455345.000   22.301562978  114.190297398     4.6228   2  13   0.4764   0.5494   1.2144   0.0793   0.2762   0.1708   0.00    0.0
2158 455346.000   22.301564654  114.190296583     4.8757   2  12   0.4277   0.4931   1.0904   0.0733   0.2506   0.1565   0.00    0.0
2158 455347.000   22.301565895  114.190296293     5.0731   2  12   0.3912   0.4507   0.9977   0.0672   0.2318   0.1463   0.00    0.0
2158 455348.000   22.301566764  114.190293252     5.1685   2  12   0.3628   0.4180   0.9254   0.0629   0.2160   0.1379   0.00    0.0
2158 455349.000   22.301567711  114.190286087     5.2339   2  11   0.3394   0.3914   0.8668   0.0594   0.2035   0.1302   0.00    0.0
2158 455350.000   22.301568299  114.190275594     5.2520   2   9   0.3203   0.3693   0.8182   0.0564   0.1924   0.1249   0.00    0.0
2158 455351.000   22.301571643  114.190262901     5.2994   2  11   0.3039   0.3506   0.7767   0.0533   0.1834   0.1201   0.00    0.0
2158 455352.000   22.301580660  114.190252813     5.3480   2  11   0.2897   0.3345   0.7410   0.0505   0.1756   0.1155   0.00    0.0
2158 455353.000   22.301592349  114.190245762     5.2645   2  13   0.2772   0.3203   0.7088   0.0483   0.1686   0.1115   0.00    0.0
2158 455354.000   22.301604788  114.190238279     5.2909   2  13   0.2662   0.3078   0.6813   0.0461   0.1624   0.1084   0.00    0.0
2158 455355.000   22.301618552  114.190230606     5.3013   2  15   0.2561   0.2966   0.6567   0.0443   0.1570   0.1055   0.00    0.0
2158 455356.000   22.301634129  114.190222073     5.3222   2  14   0.2472   0.2866   0.6344   0.0424   0.1523   0.1030   0.00    0.0
2158 455357.000   22.301655690  114.190210814     5.2921   2  12   0.2391   0.2774   0.6140   0.0399   0.1478   0.1013   0.00    0.0
2158 455358.000   22.301683906  114.190197031     5.2817   2  12   0.2318   0.2691   0.5956   0.0382   0.1438   0.0993   0.00    0.0
2158 455359.000   22.301717695  114.190181067     5.2575   2  12   0.2249   0.2615   0.5788   0.0357   0.1404   0.0978   0.00    0.0
2158 455360.000   22.301755954  114.190162878     5.2725   2  12   0.2185   0.2545   0.5633   0.0334   0.1372   0.0963   0.00    0.0
2158 455361.000   22.301798627  114.190142849     5.2842   2  12   0.2126   0.2480   0.5489   0.0313   0.1342   0.0950   0.00    0.0
2158 455362.000   22.301845522  114.190120291     5.3004   2  12   0.2072   0.2421   0.5356   0.0297   0.1313   0.0936   0.00    0.0
2158 455363.000   22.301896052  114.190095472     5.3375   2  11   0.2021   0.2366   0.5235   0.0284   0.1282   0.0923   0.00    0.0
2158 455364.000   22.301949129  114.190069238     5.3447   2  11   0.1973   0.2314   0.5118   0.0264   0.1258   0.0912   0.00    0.0
2158 455365.000   22.302001652  114.190042928     5.3104   2  12   0.1929   0.2266   0.5017   0.0253   0.1248   0.0911   0.00    0.0
2158 455366.000   22.302053151  114.190018289     5.2228   2  11   0.1889   0.2225   0.4924   0.0260   0.1231   0.0903   0.00    0.0
2158 455367.000   22.302102851  114.189993210     5.2301   2  10   0.1853   0.2186   0.4835   0.0275   0.1214   0.0895   0.00    0.0
2158 455368.000   22.302150979  114.189969039     5.1219   2   9   0.1820   0.2151   0.4752   0.0296   0.1193   0.0883   0.00    0.0
2158 455369.000   22.302196417  114.189942071     5.0543   2   8   0.1790   0.2129   0.4684   0.0339   0.1148   0.0860   0.00    1.0
2158 455370.000   22.302236045  114.189908629     5.0010   2   8   0.1877   0.2476   0.4627   0.0989   0.0855   0.0676   0.00    0.0
2158 455371.000   22.302267603  114.189869791     4.9814   2   7   0.1734   0.2080   0.4542   0.0382   0.1095   0.0837   0.00    1.0
2158 455372.000   22.302287671  114.189826020     4.9036   2   8   0.1708   0.2054   0.4469   0.0391   0.1059   0.0823   0.00    1.1
2158 455373.000   22.302296456  114.189780787     4.8931   2   9   0.1683   0.2028   0.4393   0.0404   0.1016   0.0805   0.00    1.0
2158 455374.000   22.302295195  114.189736609     4.8104   2   9   0.1660   0.2005   0.4319   0.0413   0.0976   0.0789   0.00    1.0
2158 455375.000   22.302284450  114.189694483     4.7588   2  10   0.1638   0.1984   0.4253   0.0427   0.0946   0.0775   0.00    1.0
2158 455376.000   22.302265799  114.189656019     4.7877   2  10   0.1616   0.1961   0.4187   0.0438   0.0933   0.0766   0.00    1.2
2158 455377.000   22.302244075  114.189619437     4.7826   2  11   0.1595   0.1941   0.4128   0.0449   0.0921   0.0756   0.00    1.1
2158 455378.000   22.302221476  114.189582997     4.8127   2  12   0.1572   0.1923   0.4073   0.0452   0.0907   0.0752   0.00    1.1
2158 455379.000   22.302199437  114.189547950     4.8557   2  12   0.1549   0.1905   0.4020   0.0454   0.0893   0.0745   0.00    1.0
2158 455380.000   22.302178415  114.189515626     4.9200   2  12   0.1527   0.1887   0.3969   0.0456   0.0879   0.0742   0.00    1.2
2158 455381.000   22.302158614  114.189485678     4.9315   2  11   0.1507   0.1868   0.3926   0.0451   0.0873   0.0746   0.00    1.0
2158 455382.000   22.302140054  114.189458283     4.8956   2  12   0.1486   0.1849   0.3877   0.0448   0.0870   0.0746   0.00    1.5
2158 455383.000   22.302121501  114.189432126     4.9344   2  12   0.1467   0.1830   0.3831   0.0443   0.0867   0.0747   0.00    1.6
2158 455384.000   22.302101640  114.189404257     4.9880   2  11   0.1448   0.1812   0.3790   0.0440   0.0864   0.0749   0.00    1.7
2158 455385.000   22.302080269  114.189372206     5.1316   2  10   0.1430   0.1796   0.3748   0.0434   0.0853   0.0750   0.00    1.7
2158 455386.000   22.302058984  114.189335843     5.2286   2   9   0.1413   0.1795   0.3708   0.0452   0.0839   0.0747   0.00    1.9
2158 455387.000   22.302039208  114.189291211     5.3260   2   7   0.1852   0.3143   0.3786   0.1831  -0.1302  -0.0744   0.00    1.9
2158 455388.000   22.302025869  114.189242334     5.2655   2   7   0.1384   0.1738   0.3627   0.0426   0.0877   0.0771   0.00    1.0
2158 455389.000   22.302019442  114.189187238     5.3380   2   5   0.1847   0.3157   0.3752   0.1858  -0.1257  -0.0647   0.00    2.1
2158 455390.000   22.302026480  114.189138435     5.2374   2   4   0.2023   0.3679   0.3807   0.2251  -0.1769  -0.1055   0.00    0.0
2158 455391.000   22.302046263  114.189101263     4.5746   2   4   0.3800   0.7323   0.4364   0.4591  -0.3157   0.0312   0.00    0.0
2158 455392.000   22.302064538  114.189035643     4.6092   4   2   0.7832   0.3101   0.9019  -0.1814  -0.2700   0.7943   0.00    0.0
2158 455393.000   22.302097455  114.188983955     4.9913   4   0   1.0122   0.3051   1.1365  -0.2699  -0.3334   1.0369   0.00    0.0
2158 455394.000   22.302133757  114.188940494     5.3168   4   0   1.0850   0.9771   1.1693   0.5047  -0.5613   1.0131   0.00    0.0
2158 455395.000   22.302160534  114.188888868     5.4682   4   0   0.8157   0.2839   0.9176  -0.2167  -0.2746   0.8229   0.00    0.0
2158 455396.000   22.302182309  114.188848867     5.1348   4   0   0.6840   0.2717   0.7991  -0.1634  -0.2292   0.6921   0.00    0.0
2158 455397.000   22.302194861  114.188815705     4.5444   4   0   0.6661   0.2642   0.8117  -0.1601  -0.2256   0.6899   0.00    0.0
2158 455398.000   22.302203822  114.188791048     4.3330   4   0   0.5896   0.2564   0.7337  -0.1375  -0.2035   0.6086   0.00    0.0
2158 455399.000   22.302209040  114.188773714     4.2456   4   0   0.5454   0.2523   0.6929  -0.1285  -0.1898   0.5634   0.00    0.0
2158 455400.000   22.302212506  114.188757590     4.0971   4   0   0.5119   0.2461   0.6644  -0.1194  -0.1791   0.5306   0.00    0.0
2158 455401.000   22.302209633  114.188739653     3.7918   2   5   0.8631   0.2498   0.9950  -0.2566  -0.2940   0.8926   0.00    0.0
2158 455402.000   22.302202210  114.188724216     3.7398   2   9   1.2170   0.2609   1.3573  -0.3786  -0.4112   1.2614   0.00    0.0
2158 455403.000   22.302193109  114.188713749     3.9279   2  10   0.7348   0.2388   0.8723  -0.2164  -0.2561   0.7638   0.00    0.0
2158 455404.000   22.302181705  114.188708653     3.9578   2  12   0.6284   0.2306   0.7699  -0.1796  -0.2207   0.6546   0.00    0.0
2158 455405.000   22.302177184  114.188707589     4.0106   2  11   0.5758   0.2245   0.7203  -0.1601  -0.2012   0.6010   0.00    0.0
2158 455406.000   22.302177899  114.188707254     4.1536   2  13   0.5361   0.2195   0.6833  -0.1463  -0.1870   0.5607   0.00    0.0
2158 455407.000   22.302176415  114.188706676     4.0016   2  13   0.4991   0.2145   0.6478  -0.1339  -0.1741   0.5224   0.00    0.0
2158 455408.000   22.302175761  114.188706048     3.9580   2  12   0.4701   0.2103   0.6206  -0.1256  -0.1649   0.4927   0.00    0.0
2158 455409.000   22.302175558  114.188705694     3.9293   2  13   0.4455   0.2065   0.5979  -0.1189  -0.1573   0.4676   0.00    0.0
2158 455410.000   22.302175787  114.188705355     3.9689   2  13   0.4243   0.2030   0.5784  -0.1130  -0.1507   0.4459   0.00    0.0
2158 455411.000   22.302176179  114.188704949     4.0575   2  14   0.4056   0.1996   0.5611  -0.1080  -0.1447   0.4268   0.00    0.0
2158 455412.000   22.302176499  114.188704620     4.1382   2  13   0.3890   0.1965   0.5460  -0.1036  -0.1393   0.4099   0.00    0.0
2158 455413.000   22.302176866  114.188704290     4.2389   2  12   0.3740   0.1935   0.5324  -0.0997  -0.1344   0.3947   0.00    0.0
2158 455414.000   22.302177354  114.188704062     4.3397   2  12   0.3605   0.1907   0.5200  -0.0961  -0.1299   0.3810   0.00    0.0
2158 455415.000   22.302178117  114.188703939     4.4765   2  13   0.3481   0.1880   0.5084  -0.0926  -0.1255   0.3682   0.00    0.0
2158 455416.000   22.302178673  114.188703829     4.5731   2  14   0.3366   0.1854   0.4975  -0.0895  -0.1215   0.3563   0.00    0.0
2158 455417.000   22.302179583  114.188703754     4.7393   2  14   0.3260   0.1829   0.4875  -0.0868  -0.1177   0.3454   0.00    0.0
2158 455418.000   22.302180363  114.188703735     4.8936   2  13   0.3162   0.1805   0.4783  -0.0842  -0.1143   0.3353   0.00    0.0
2158 455419.000   22.302181526  114.188703839     5.0851   2  13   0.3070   0.1782   0.4695  -0.0820  -0.1111   0.3258   0.00    0.0
2158 455420.000   22.302182662  114.188703931     5.2702   2  14   0.2982   0.1759   0.4608  -0.0795  -0.1075   0.3166   0.00    0.0
2158 455421.000   22.302184006  114.188704061     5.4885   2  13   0.2900   0.1737   0.4530  -0.0775  -0.1046   0.3081   0.00    0.0
2158 455422.000   22.302184185  114.188704152     5.5039   2  14   0.2828   0.1716   0.4461  -0.0752  -0.1012   0.3008   0.00    0.0
2158 455423.000   22.302184305  114.188704129     5.5288   2  14   0.2759   0.1696   0.4399  -0.0731  -0.0980   0.2939   0.00    1.4
2158 455424.000   22.302184425  114.188704197     5.5406   2  13   0.2693   0.1677   0.4338  -0.0710  -0.0947   0.2873   0.00    1.0
2158 455425.000   22.302184505  114.188704272     5.5456   2  14   0.2630   0.1658   0.4275  -0.0691  -0.0915   0.2808   0.00    1.7
2158 455426.000   22.302184289  114.188704346     5.5091   2  14   0.2569   0.1640   0.4215  -0.0673  -0.0885   0.2745   0.00    1.0
2158 455427.000   22.302184395  114.188704461     5.5278   2  14   0.2510   0.1623   0.4157  -0.0656  -0.0856   0.2684   0.00    1.4
2158 455428.000   22.302184239  114.188704483     5.4898   2  14   0.2453   0.1606   0.4100  -0.0640  -0.0827   0.2625   0.00    1.0
2158 455429.000   22.302184415  114.188704522     5.5098   2  13   0.2398   0.1590   0.4046  -0.0625  -0.0799   0.2568   0.00    1.0
2158 455430.000   22.302184290  114.188704603     5.4898   2  13   0.2345   0.1574   0.3992  -0.0611  -0.0772   0.2513   0.00    1.1
2158 455431.000   22.302184292  114.188704544     5.4939   2  13   0.2294   0.1559   0.3940  -0.0598  -0.0746   0.2459   0.00    1.1
2158 455432.000   22.302184025  114.188704507     5.4598   2  13   0.2245   0.1544   0.3887  -0.0585  -0.0720   0.2406   0.00    1.5
2158 455433.000   22.302183650  114.188704510     5.4200   2  13   0.2196   0.1529   0.3835  -0.0573  -0.0695   0.2355   0.00    1.1
2158 455434.000   22.302183546  114.188704443     5.4203   2  13   0.2150   0.1515   0.3784  -0.0562  -0.0670   0.2304   0.00    1.0
2158 455435.000   22.302183645  114.188704444     5.4137   2  12   0.2106   0.1502   0.3742  -0.0554  -0.0652   0.2259   0.00    1.0
2158 455436.000   22.302183601  114.188704421     5.4130   2  13   0.2062   0.1488   0.3689  -0.0542  -0.0622   0.2210   0.00    1.1
2158 455437.000   22.302183474  114.188704375     5.4044   2  13   0.2018   0.1475   0.3639  -0.0533  -0.0598   0.2162   0.00    1.1
2158 455438.000   22.302183768  114.188704385     5.4499   2  13   0.1976   0.1462   0.3590  -0.0523  -0.0574   0.2115   0.00    1.1
2158 455439.000   22.302183721  114.188704318     5.4222   2  14   0.1936   0.1449   0.3541  -0.0515  -0.0549   0.2070   0.00    1.1
2158 455440.000   22.302183954  114.188704234     5.4278   2  13   0.1896   0.1436   0.3493  -0.0507  -0.0524   0.2025   0.00    1.1
2158 455441.000   22.302183810  114.188704162     5.4194   2  13   0.1857   0.1424   0.3446  -0.0499  -0.0501   0.1981   0.00    1.3
2158 455442.000   22.302183072  114.188703974     5.4363   2  13   0.1819   0.1412   0.3398  -0.0490  -0.0473   0.1937   0.00    1.1
2158 455443.000   22.302172758  114.188702244     5.4478   2  12   0.1789   0.1401   0.3370  -0.0487  -0.0461   0.1908   0.00    1.2
2158 455444.000   22.302148491  114.188694068     5.5070   2   7   0.1769   0.1392   0.3357  -0.0481  -0.0451   0.1895   0.00    1.3
2158 455445.000   22.302110437  114.188677904     5.4882   2  10   0.1748   0.1382   0.3336  -0.0468  -0.0427   0.1875   0.00    1.2
2158 455446.000   22.302062569  114.188652512     5.5491   2   7   0.1729   0.1375   0.3330  -0.0466  -0.0400   0.1862   0.00    1.3
2158 455447.000   22.302006770  114.188620262     6.1461   4   3   0.2541   0.2354   0.6551   0.1832   0.3267   0.3741   0.00    0.0
2158 455448.000   22.301952063  114.188592384     8.6591   4   2   0.4580   0.4938   1.3184   0.4319   0.7480   0.7590   0.00    0.0
2158 455449.000   22.301884677  114.188530303     6.2352   4   2   0.1703   0.1380   0.3424  -0.0432  -0.0436   0.1875   0.00    0.0
2158 455450.000   22.301827620  114.188476907     6.1174   2   5   0.1689   0.1363   0.3400  -0.0444  -0.0475   0.1858   0.00    1.1
2158 455451.000   22.301773436  114.188418804     5.8715   2   6   0.1669   0.1325   0.3251  -0.0446  -0.0365   0.1808   0.00    1.3
2158 455452.000   22.301724621  114.188356750     6.0806   2   4   0.1659   0.1345   0.3374  -0.0437  -0.0455   0.1836   0.00    1.1
2158 455453.000   22.301699731  114.188329498     7.3229   4   0   0.4829   0.8427   0.8012   0.5930  -0.0704   0.3847   0.00    0.0
2158 455454.000   22.301655861  114.188266847    12.1123   4   2   0.5102   0.7683   1.5697   0.3271   0.4815   0.8777   0.00    0.0
2158 455455.000   22.301626981  114.188206189    12.5789   4   2   0.7697   1.0675   2.3070   0.7588   0.1458   1.1082   0.00    0.0
2158 455456.000   22.301579711  114.188112327    15.7690   2   4   0.8344   1.1500   2.8057   0.7668  -0.5672   1.2841   0.00    0.0
2158 455457.000   22.301525238  114.188023439    12.8207   2   5   0.6878   1.0513   2.6354   0.5992  -0.9129   1.0870   0.00    0.0
2158 455458.000   22.301477542  114.187956368     6.2331   2   4   0.5833   0.9849   0.4887   0.7374   0.5163   0.4438   0.00    0.0
2158 455459.000   22.301440266  114.187878894     5.4623   4   3   0.5290   0.8926   1.8051   0.6596   0.1415   0.4600   0.00    0.0
2158 455460.000   22.301417358  114.187825194     8.1432   4   2   0.3842   0.6889   2.0262   0.4765  -0.7310  -0.2729   0.00    0.0
2158 455461.000   22.301395053  114.187790268     4.9000   4   0   1.0194   0.6910   1.9950   0.0510  -0.8790   0.5993   0.00    0.0
2158 455462.000   22.301385325  114.187743777     3.3199   4   2   1.1475   1.1449   2.1595  -0.5182  -0.4286   0.6898   0.00    0.0
2158 455463.000   22.301377802  114.187736619     1.5461   4   2   1.1145   0.8323   2.0788  -0.3509  -0.8101   0.7647   0.00    0.0
2158 455464.000   22.301359325  114.187736014     1.4880   4   3   1.1843   0.9954   2.1104  -0.7028  -0.9799   0.5373   0.00    0.0
2158 455465.000   22.301364881  114.187716460     3.5420   2   5   0.9841   0.9774   1.9048  -0.7590  -1.0161   0.8984   0.00    0.0
2158 455466.000   22.301367479  114.187708005     5.0802   2   4   0.9150   0.8818   1.9656  -0.7219  -0.9586   0.8853   0.00    0.0
2158 455467.000   22.301368576  114.187706643     4.2569   2   4   1.1494   0.9056   2.4373  -0.8648  -0.8097   0.1122   0.00    0.0
2158 455468.000   22.301367870  114.187704108     2.5435   2   4   1.1869   0.8913   2.6021  -0.8849  -0.7906  -0.4582   0.00    0.0
2158 455469.000   22.301359479  114.187714397    -0.6976   2   8   0.8787   0.7937   2.3814  -0.7008  -0.9960   0.7484   0.00    0.0
2158 455470.000   22.301361831  114.187712302     1.2382   2   7   0.7537   0.6252   1.6913  -0.5543  -0.5933   0.4422   0.00    0.0
2158 455471.000   22.301353782  114.187719663     1.1253   2   6   0.7126   0.5733   1.4630  -0.5150  -0.4872   0.3988   0.00    0.0
2158 455472.000   22.301347387  114.187725993    -0.0571   2   7   0.6815   0.5416   1.3483  -0.4901  -0.4484   0.3987   0.00    0.0
2158 455473.000   22.301340556  114.187730839    -0.6885   2   6   0.6554   0.5170   1.2649  -0.4701  -0.4250   0.4004   0.00    0.0
2158 455474.000   22.301333777  114.187731429     0.1341   2   4   0.6275   0.4979   1.1891  -0.4523  -0.4188   0.4193   0.00    0.0
2158 455475.000   22.301324801  114.187731445     0.7443   2   6   0.9286   0.8842   1.3058  -0.8453  -0.8136   0.8074   0.00    0.0
2158 455476.000   22.301297905  114.187723949     1.6914   4   2   1.5903   1.2255   1.8511  -0.8986  -0.7400   1.0418   0.00    0.0
2158 455477.000   22.301324469  114.187707437     3.9793   4   2   1.5277   0.8580   2.4942  -0.3560   0.4719   0.7700   0.00    0.0
2158 455478.000   22.301345398  114.187679650     6.4608   4   2   1.5796   1.1930   2.6537  -0.7961  -0.0705   1.0258   0.00    0.0
2158 455479.000   22.301349584  114.187696056     7.1461   4   0   1.6451   1.2969   2.6632  -0.9378  -0.7316   1.3443   0.00    0.0
2158 455480.000   22.301310526  114.187766544     6.6120   4   2   1.4985   1.2370   2.6449  -0.8152  -0.7225   1.2847   0.00    0.0
2158 455481.000   22.301298040  114.187838201     1.6097   4   3   1.5526   1.3023   2.6933  -0.9306  -0.8671   1.3752   0.00    0.0
2158 455482.000   22.301338637  114.187862319     2.2729   4   3   1.0357   0.9281   2.3911  -0.4578   0.5386   1.0891   0.00    0.0
2158 455483.000   22.301380622  114.187895723     4.8386   4   3   0.8347   0.9087   2.1877   0.2325   1.1343   0.9255   0.00    0.0
2158 455484.000   22.301407500  114.187941560     3.7278   4   3   0.6736   0.5941   1.4957  -0.2621   0.5927   0.5904   0.00    0.0
2158 455485.000   22.301450493  114.187989661     4.9333   2   5   0.5831   0.5144   1.2690  -0.2425   0.4624   0.4737   0.00    0.0
2158 455486.000   22.301489615  114.188038693     5.0579   2   5   0.5311   0.4689   1.1548  -0.2169   0.4001   0.4313   0.00    0.0
2158 455487.000   22.301524003  114.188091430     5.3907   2   6   0.6734   0.9028   1.1093   0.5579   0.5183   0.5197   0.00    0.0
2158 455488.000   22.301565358  114.188147418     6.5573   2   4   0.6030   0.7392   1.3431   0.4355   0.6874   0.6521   0.00    0.0
2158 455489.000   22.301619973  114.188184643     8.6402   4   0   1.2337   1.1266   1.8836  -0.7584   0.8345   1.0896   0.00    0.0
2158 455490.000   22.301643033  114.188230484     8.0608   4   0   0.8027   1.0028   1.9337  -0.2350   1.1052   0.8544   0.00    0.0
2158 455491.000   22.301681436  114.188306114    16.4065   2   5   0.5399   0.7201   1.7003   0.4305   0.9250   0.7792   0.00    0.0
2158 455492.000   22.301709027  114.188351821    19.6452   2   5   1.0802   1.0511   1.7646  -0.6994   0.8576   0.9645   0.00    0.0
2158 455493.000   22.301725929  114.188359525    17.4723   2   8   0.4365   0.5284   1.2291   0.2505   0.5862   0.5460   0.00    0.0
2158 455494.000   22.301735683  114.188367774    16.5531   2   9   0.3992   0.4639   1.0669   0.1743   0.4597   0.4608   0.00    0.0
2158 455495.000   22.301741584  114.188369805    16.0894   2   8   0.3759   0.4276   0.9767   0.1250   0.3900   0.4132   0.00    0.0
2158 455496.000   22.301742843  114.188366746    15.5190   2   8   0.3577   0.4011   0.9105   0.0815   0.3400   0.3786   0.00    0.0
2158 455497.000   22.301744116  114.188365407    15.5140   2   8   0.3435   0.3795   0.8589   0.0300   0.3000   0.3538   0.00    0.0
2158 455498.000   22.301745469  114.188363388    15.3855   2   8   0.3303   0.3623   0.8151  -0.0562   0.2674   0.3315   0.00    0.0
2158 455499.000   22.301746730  114.188361479    15.2623   2   9   0.3190   0.3473   0.7782  -0.0781   0.2397   0.3132   0.00    0.0
2158 455500.000   22.301747931  114.188360026    15.1087   2   9   0.3094   0.3356   0.7508  -0.0872   0.2216   0.3000   0.00    0.0
2158 455501.000   22.301749129  114.188358818    14.9742   2   9   0.3009   0.3251   0.7265  -0.0935   0.2056   0.2888   0.00    0.0
2158 455502.000   22.301750385  114.188358197    14.9131   2  10   0.2922   0.3156   0.7021  -0.0986   0.1903   0.2765   0.00    0.0
2158 455503.000   22.301751513  114.188357836    14.9034   2   9   0.2848   0.3065   0.6798  -0.1027   0.1748   0.2662   0.00    0.0
2158 455504.000   22.301752643  114.188357647    14.9323   2  10   0.2779   0.2982   0.6595  -0.1056   0.1608   0.2572   0.00    0.0
2158 455505.000   22.301753677  114.188357338    14.9199   2  10   0.2716   0.2905   0.6410  -0.1076   0.1481   0.2489   0.00    0.0
2158 455506.000   22.301754566  114.188356817    14.9147   2   9   0.2657   0.2834   0.6241  -0.1090   0.1372   0.2417   0.00    0.0
2158 455507.000   22.301755516  114.188356675    14.8807   2   9   0.2602   0.2770   0.6086  -0.1098   0.1268   0.2349   0.00    0.0
2158 455508.000   22.301756417  114.188357092    14.8776   2   8   0.2553   0.2713   0.5965  -0.1093   0.1205   0.2301   0.00    0.0
2158 455509.000   22.301757381  114.188357434    14.8994   2   9   0.2505   0.2658   0.5843  -0.1092   0.1141   0.2249   0.00    0.0
2158 455510.000   22.301758207  114.188357684    14.9112   2   8   0.2462   0.2607   0.5733  -0.1085   0.1089   0.2209   0.00    0.0
2158 455511.000   22.301759123  114.188357786    14.9470   2   9   0.2417   0.2558   0.5624  -0.1081   0.1036   0.2161   0.00    0.0
2158 455512.000   22.301760070  114.188357651    14.9542   2   9   0.2377   0.2511   0.5523  -0.1073   0.0987   0.2122   0.00    0.0
2158 455513.000   22.301760951  114.188357446    14.9681   2   8   0.2340   0.2468   0.5432  -0.1062   0.0951   0.2088   0.00    0.0
2158 455514.000   22.301761913  114.188357598    15.0598   2   9   0.2300   0.2425   0.5338  -0.1055   0.0906   0.2047   0.00    0.0
2158 455515.000   22.301762920  114.188357711    15.1758   2   9   0.2264   0.2385   0.5252  -0.1045   0.0869   0.2013   0.00    0.0
2158 455516.000   22.301763830  114.188357859    15.3144   2   9   0.2229   0.2347   0.5171  -0.1036   0.0838   0.1980   0.00    0.0
2158 455517.000   22.301765004  114.188357986    15.4766   2  10   0.2190   0.2309   0.5085  -0.1028   0.0794   0.1939   0.00    0.0
2158 455518.000   22.301765770  114.188358222    15.5942   2  10   0.2161   0.2273   0.5011  -0.1012   0.0768   0.1918   0.00    0.0
2158 455519.000   22.301766715  114.188358403    15.8086   2   9   0.2131   0.2238   0.4941  -0.1001   0.0735   0.1892   0.00    0.0
2158 455520.000   22.301767679  114.188359148    16.1218   2  10   0.2100   0.2205   0.4868  -0.0989   0.0709   0.1863   0.00    0.0
2158 455521.000   22.301768168  114.188358866    16.1395   2  10   0.2072   0.2175   0.4811  -0.0974   0.0704   0.1841   0.00    0.0
2158 455522.000   22.301768651  114.188358814    16.1892   2  10   0.2044   0.2146   0.4755  -0.0960   0.0699   0.1820   0.00    0.0
2158 455523.000   22.301769252  114.188358701    16.2380   2  10   0.2017   0.2117   0.4701  -0.0946   0.0694   0.1799   0.00    0.0
2158 455524.000   22.301771721  114.188360778    16.3045   2   9   0.1995   0.2090   0.4648  -0.0928   0.0706   0.1786   0.00    1.5
2158 455525.000   22.301778595  114.188369276    16.6315   2   9   0.1969   0.2062   0.4593  -0.0912   0.0708   0.1768   0.00    1.2
2158 455526.000   22.301793149  114.188387535    16.6875   2   7   0.1977   0.2033   0.4627  -0.0878   0.0748   0.1845   0.00    1.1
2158 455527.000   22.301815813  114.188411670    16.7432   2   7   0.1917   0.2009   0.4483  -0.0879   0.0700   0.1732   0.00    1.1
2158 455528.000   22.301845481  114.188441768    16.8481   2   5   0.1923   0.1985   0.4520  -0.0843   0.0748   0.1801   0.00    1.1
2158 455529.000   22.301881084  114.188471264    16.3645   2   5   0.1916   0.1970   0.4520  -0.0803   0.0816   0.1831   0.00    1.3
2158 455530.000   22.301925390  114.188504410    16.6477   2   5   0.1889   0.1963   0.4505  -0.0792   0.0886   0.1811   0.00    1.0
2158 455531.000   22.301975732  114.188535922    16.6102   4   3   0.1882   0.1954   0.4511  -0.0751   0.0955   0.1838   0.00    0.0
2158 455532.000   22.302029480  114.188563501    16.3111   4   2   0.1854   0.1894   0.4347  -0.0792   0.0700   0.1768   0.00    0.0
2158 455533.000   22.302087014  114.188589069    16.2554   4   3   0.1840   0.1873   0.4312  -0.0783   0.0682   0.1765   0.00    0.0
2158 455534.000   22.302145490  114.188609964    16.1133   4   2   0.1827   0.1854   0.4288  -0.0771   0.0683   0.1767   0.00    0.0
2158 455535.000   22.302201375  114.188626332    15.9050   2   6   0.1811   0.1832   0.4249  -0.0767   0.0661   0.1757   0.00    1.2
2158 455536.000   22.302253660  114.188638859    15.7444   2   5   0.1793   0.1809   0.4206  -0.0765   0.0624   0.1739   0.00    1.4
2158 455537.000   22.302301628  114.188648584    15.6321   2   4   0.1776   0.1789   0.4173  -0.0757   0.0612   0.1727   0.00    1.1
2158 455538.000   22.302345635  114.188656438    15.5177   4   3   0.1758   0.1768   0.4134  -0.0754   0.0578   0.1710   0.00    0.0
2158 455539.000   22.302381116  114.188661524    15.3440   2   5   0.1746   0.1755   0.4114  -0.0735   0.0595   0.1709   0.00    1.2
2158 455540.000   22.302406274  114.188663937    15.3367   4   3   0.1733   0.1737   0.4093  -0.0720   0.0606   0.1706   0.00    0.0
2158 455541.000   22.302421925  114.188664883    15.2809   4   0   0.1756   0.1731   0.4242  -0.0690   0.0614   0.1814   0.00    0.0
2158 455542.000   22.302430328  114.188664429    15.1000   4   0   0.1734   0.1709   0.4117  -0.0662   0.0698   0.1760   0.00    0.0
2158 455543.000   22.302434135  114.188663385    15.0176   4   0   0.1709   0.1683   0.4073  -0.0676   0.0647   0.1727   0.00    0.0
2158 455544.000   22.302434564  114.188662118    14.9134   4   0   0.2284   0.1673   0.7844  -0.0528   0.1054   0.3637   0.00    0.0
2158 455545.000   22.302435016  114.188660922    14.8754   4   0   0.1682   0.1649   0.4016  -0.0660   0.0630   0.1706   0.00    0.0
2158 455546.000   22.302435173  114.188659661    14.7260   4   2   0.1695   0.1636   0.4137  -0.0623   0.0719   0.1790   0.00    0.0
2158 455547.000   22.302435758  114.188658437    14.6904   4   3   0.1650   0.1622   0.3962  -0.0631   0.0660   0.1679   0.00    0.0
2158 455548.000   22.302436123  114.188657363    14.6201   4   0   0.1645   0.1605   0.3947  -0.0621   0.0648   0.1684   0.00    0.0
2158 455549.000   22.302436418  114.188656367    14.5233   4   2   0.1634   0.1589   0.3923  -0.0614   0.0639   0.1676   0.00    0.0
2158 455550.000   22.302436620  114.188655460    14.4380   4   0   0.1621   0.1574   0.3899  -0.0609   0.0631   0.1665   0.00    0.0
2158 455551.000   22.302436996  114.188654540    14.3505   4   0   0.1610   0.1561   0.3881  -0.0599   0.0636   0.1661   0.00    0.0
2158 455552.000   22.302437391  114.188653590    14.3531   4   0   0.1599   0.1547   0.3862  -0.0591   0.0635   0.1655   0.00    0.0
2158 455553.000   22.302437601  114.188652805    14.2647   4   0   0.1589   0.1535   0.3845  -0.0581   0.0639   0.1651   0.00    0.0
2158 455554.000   22.302437896  114.188651955    14.1892   4   0   0.1580   0.1523   0.3828  -0.0571   0.0642   0.1646   0.00    0.0
2158 455555.000   22.302438150  114.188651329    14.1445   4   0   0.1570   0.1511   0.3812  -0.0562   0.0645   0.1642   0.00    0.0
2158 455556.000   22.302438463  114.188650804    14.1326   4   0   0.1567   0.1503   0.3806  -0.0554   0.0655   0.1645   0.00    0.0
2158 455557.000   22.302438963  114.188650355    14.1725   4   0   0.1559   0.1495   0.3794  -0.0544   0.0666   0.1641   0.00    0.0
2158 455558.000   22.302438758  114.188649630    13.9971   4   0   0.1547   0.1486   0.3784  -0.0535   0.0684   0.1631   0.00    0.0
2158 455559.000   22.302438950  114.188649029    13.9521   4   0   0.1538   0.1475   0.3759  -0.0528   0.0680   0.1624   0.00    0.0
2158 455560.000   22.302439241  114.188648776    13.9409   4   0   0.1548   0.1469   0.3837  -0.0507   0.0731   0.1674   0.00    0.0
2158 455561.000   22.302439673  114.188648592    13.9542   4   0   0.1541   0.1461   0.3827  -0.0498   0.0745   0.1670   0.00    0.0
2158 455562.000   22.302439889  114.188648326    13.7785   4   0   0.1522   0.1453   0.3732  -0.0505   0.0713   0.1619   0.00    0.0
2158 455563.000   22.302443970  114.188648105    13.7975   4   0   0.1515   0.1445   0.3721  -0.0499   0.0718   0.1613   0.00    0.0
2158 455564.000   22.302453480  114.188648626    13.7444   4   0   0.1503   0.1435   0.3700  -0.0491   0.0721   0.1602   0.00    0.0
2158 455565.000   22.302472927  114.188649323    13.7632   4   0   0.1493   0.1426   0.3687  -0.0484   0.0726   0.1598   0.00    0.0
2158 455566.000   22.302501296  114.188648080    13.7725   4   0   0.1485   0.1420   0.3684  -0.0478   0.0730   0.1596   0.00    0.0
2158 455567.000   22.302538131  114.188644173    13.7845   4   0   0.1505   0.1420   0.3818  -0.0430   0.0825   0.1681   0.00    0.0
2158 455568.000   22.302581915  114.188635694    13.6347   4   0   0.1469   0.1408   0.3665  -0.0464   0.0745   0.1587   0.00    0.0
2158 455569.000   22.302629083  114.188611235    14.1946   4   0   0.3338   0.7996   0.5231   0.4830  -0.5254  -0.2816   0.00    0.0
2158 455570.000   22.302684957  114.188604075    13.3401   4   0   0.1451   0.1393   0.3629  -0.0452   0.0745   0.1569   0.00    0.0
2158 455571.000   22.302739319  114.188583106    12.9965   2   9   0.1441   0.1467   0.3839  -0.0474  -0.0289   0.1582   0.00    1.1
2158 455572.000   22.302796656  114.188533708    13.8025   2   8   0.1509   1.0138   0.4931  -0.2130  -0.5656   0.2001   0.00    0.0
2158 455573.000   22.302850311  114.188509532    13.2814   2   5   0.2164   0.6428   0.4153   0.2889  -0.3340   0.0320   0.00    0.0
2158 455574.000   22.302909674  114.188471210    13.0868   2   8   0.2314   0.5642   0.4020   0.2742  -0.2872   0.0614   0.00    0.0
2158 455575.000   22.302969842  114.188433545    12.5245   2  11   0.1419   0.3329   0.3792  -0.0687  -0.1566   0.1599   0.00    1.2
2158 455576.000   22.303021540  114.188376393    12.3094   2   7   0.2163   0.5080   0.3925   0.2445  -0.2568   0.0849   0.00    0.0
2158 455577.000   22.303062272  114.188294183    12.1519   2   6   0.4462   0.9912   0.4113   0.6275  -0.4193  -0.2101   0.00    0.0
2158 455578.000   22.303099615  114.188192094    10.6234   4   0   1.1609   1.4905   1.0996   0.5970  -0.4090   0.3050   0.00    0.0
2158 455579.000   22.303158448  114.188155400     4.0590   4   0   1.2144   1.4163   2.3921   0.4547  -0.5476   0.8507   0.00    0.0
2158 455580.000   22.303203974  114.188101756    -0.7975   2   5   1.2021   1.3949   2.7539   0.3696  -0.8428   0.9432   0.00    0.0
2158 455581.000   22.303249265  114.187980484     8.3370   2   5   0.8908   1.2862   1.8635   0.5527  -0.9453   0.4604   0.00    0.0
2158 455582.000   22.303301617  114.187890988     7.5604   2   6   0.8051   1.4197   1.6734   0.7211  -1.0288   0.0914   0.00    0.0
2158 455583.000   22.303363817  114.187818618     6.5442   2   5   0.7603   1.3453   1.5879   0.6894  -0.9639   0.2736   0.00    0.0
2158 455584.000   22.303438196  114.187746423     6.5308   4   2   1.1703   1.6097   1.9443   0.6051  -0.9393   0.4982   0.00    0.0
2158 455585.000   22.303507977  114.187689185     4.3710   4   2   0.9707   1.4853   1.8322   0.9792  -0.9299   0.4665   0.00    0.0
2158 455586.000   22.303579971  114.187611291     4.6440   4   0   1.3193   1.5556   2.2077   0.7208  -1.2806   1.1831   0.00    0.0
2158 455587.000   22.303621319  114.187530700     4.2753   4   0   1.4765   1.8124   2.8950   0.8260  -0.9955   1.3440   0.00    0.0
2158 455588.000   22.303659182  114.187510454     6.8742   4   0   1.8484   2.0187   4.1107   1.0026  -1.0426   1.7706   0.00    0.0
2158 455589.004   22.303684234  114.187543766     4.2403   4   0   2.2872   2.7400   5.9141   1.0169  -2.1974   2.3167   0.00    0.0
2158 455590.000   22.303614751  114.187115731     1.9852   4   0   2.3178   4.0880   6.4163   1.4793  -2.3456   3.0782   0.00    0.0
2158 455591.000   22.303615597  114.186813318   -10.4063   4   0   2.6442   2.6791   5.8848   2.1221   2.7922   3.4845   0.00    0.0
2158 455592.000   22.303764345  114.186550028    27.6629   4   2   2.1389   2.4505   5.1783   1.6689   2.4229   2.8898   0.00    0.0
2158 455593.000   22.303890361  114.186436239    63.0647   2   4   2.1711   2.0679   5.3789   1.3766   2.2601   3.0359   0.00    0.0
2158 455594.000   22.303964469  114.186366746    76.4317   4   0   2.4362   2.1343   5.7540   1.5746   2.4865   3.3790   0.00    0.0
2158 455595.000   22.304169386  114.186445341   119.4761   4   0   1.8609   1.4216   4.4448  -0.4588  -0.3986   2.3989   0.00    0.0
2158 455596.000   22.304275620  114.186647173   109.9841   4   0   2.0014   2.6722   5.7834   0.5516  -2.2399   2.6185   0.00    0.0
2158 455597.000   22.304338158  114.186802997    80.7828   4   2   2.5595   4.3939   6.3921   2.2523  -2.1057   3.1297   0.00    0.0
2158 455598.000   22.304224232  114.186790882    38.1043   4   3   1.9011   1.9418   3.8309   1.0395  -1.1994   2.0978   0.00    0.0
2158 455599.000   22.304164124  114.186677996    28.7425   2   5   1.9089   2.4205   4.5084  -0.8974  -2.7007   2.3451   0.00    0.0
2158 455600.000   22.304171783  114.186646017    12.1336   2   4   1.7578   1.7104   3.6344   0.6469  -1.3393   1.7621   0.00    0.0
2158 455601.000   22.304250290  114.186610334    23.2881   2   4   1.6373   1.8697   2.8829   0.5912  -1.6178   1.5525   0.00    0.0
2158 455602.000   22.304284995  114.186596777    22.1183   4   3   1.5545   1.0771   2.5108  -0.3795  -1.0625   1.5570   0.00    0.0
2158 455603.000   22.304313309  114.186579319    21.0599   2   7   1.1839   0.9068   2.2155  -0.2973  -0.8667   1.2906   0.00    0.0
2158 455604.000   22.304318353  114.186563392    18.2705   2   5   0.9113   0.8077   1.9550  -0.0450  -0.7232   1.0237   0.00    0.0
2158 455605.000   22.304344318  114.186555780    16.6214   2   4   0.9070   1.2833   1.8732   0.6861  -0.9781   0.7714   0.00    0.0
2158 455606.000   22.304358012  114.186523505    16.2636   2   6   0.9210   1.5890   1.8074   0.9098  -1.1223   0.5815   0.00    0.0
2158 455607.000   22.304370772  114.186495924    16.0553   2   7   0.7526   1.0426   1.6395   0.5418  -0.7707   0.6977   0.00    0.0
2158 455608.000   22.304384613  114.186471072    15.7550   2   7   0.6891   0.8955   1.5466   0.4486  -0.6638   0.6803   0.00    0.0
2158 455609.000   22.304396973  114.186449189    15.4344   2   7   0.6409   0.7945   1.4726   0.3852  -0.5919   0.6580   0.00    0.0
2158 455610.000   22.304405558  114.186430504    15.1543   2   7   0.6031   0.7229   1.4100   0.3417  -0.5395   0.6352   0.00    0.0
2158 455611.000   22.304411579  114.186413926    15.2223   2   9   0.5685   0.6720   1.3608   0.3048  -0.5139   0.6112   0.00    0.0
2158 455612.000   22.304415208  114.186399369    15.3401   2   9   0.5408   0.6499   1.3200   0.2874  -0.5044   0.5873   0.00    0.0
2158 455613.000   22.304417681  114.186392729    14.9712   2   9   0.5133   0.5997   1.2729   0.2547  -0.4719   0.5681   0.00    0.0
2158 455614.000   22.304418379  114.186385605    14.5885   2   9   0.4914   0.5642   1.2311   0.2344  -0.4452   0.5503   0.00    0.0
2158 455615.000   22.304417029  114.186382472    14.2555   2   9   0.4724   0.5348   1.1932   0.2185  -0.4234   0.5338   0.00    0.0
2158 455616.000   22.304414297  114.186381352    13.9128   2   9   0.4555   0.5097   1.1588   0.2052  -0.4045   0.5188   0.00    0.0
2158 455617.000   22.304411541  114.186380155    13.7514   2   9   0.4402   0.4879   1.1272   0.1938  -0.3879   0.5049   0.00    0.0
2158 455618.000   22.304409007  114.186379177    13.6216   2   9   0.4261   0.4687   1.0986   0.1832  -0.3739   0.4919   0.00    0.0
2158 455619.000   22.304407154  114.186378605    13.5045   2   8   0.4135   0.4520   1.0722   0.1747  -0.3615   0.4799   0.00    0.0
2158 455620.000   22.304405265  114.186377539    13.4570   2  11   0.4015   0.4354   1.0464   0.1660  -0.3487   0.4689   0.00    0.0
2158 455621.000   22.304403696  114.186376548    13.4413   2  10   0.3908   0.4216   1.0236   0.1589  -0.3383   0.4586   0.00    0.0
2158 455622.000   22.304402464  114.186375527    13.4094   2   9   0.3809   0.4089   1.0018   0.1525  -0.3282   0.4490   0.00    0.0
2158 455623.000   22.304402067  114.186375450    13.3009   2  10   0.3715   0.3966   0.9808   0.1457  -0.3179   0.4402   0.00    0.0
2158 455624.000   22.304402603  114.186374109    13.1898   2   9   0.3627   0.3855   0.9614   0.1398  -0.3089   0.4319   0.00    0.0
2158 455625.000   22.304404844  114.186370771    13.1022   2   8   0.3545   0.3756   0.9437   0.1344  -0.3012   0.4240   0.00    0.0
2158 455626.000   22.304409911  114.186365930    12.9766   2   8   0.3469   0.3662   0.9265   0.1294  -0.2935   0.4166   0.00    0.0
2158 455627.000   22.304413941  114.186361419    12.9185   2   9   0.3382   0.3569   0.9042   0.1231  -0.2872   0.4060   0.00    0.0
2158 455628.000   22.304415556  114.186360794    12.7288   2  11   0.3298   0.3482   0.8843   0.1167  -0.2824   0.3964   0.00    0.0
2158 455629.000   22.304418090  114.186359408    12.5025   2  11   0.3221   0.3402   0.8649   0.1111  -0.2769   0.3872   0.00    0.0
2158 455630.000   22.304424671  114.186353267    12.2025   2  10   0.3146   0.3327   0.8455   0.1057  -0.2722   0.3776   0.00    0.0
2158 455631.000   22.304438556  114.186338328    11.8846   2   8   0.3079   0.3259   0.8294   0.1010  -0.2681   0.3696   0.00    0.0
2158 455632.000   22.304460234  114.186315273    11.7182   2  10   0.3015   0.3189   0.8129   0.0963  -0.2626   0.3624   0.00    0.0
2158 455633.000   22.304488123  114.186284816    11.5847   2   9   0.2964   0.3127   0.8023   0.0929  -0.2577   0.3580   0.00    0.0
2158 455634.000   22.304522869  114.186250908    11.2666   2   8   0.2954   0.3322   0.7911   0.1185  -0.2569   0.3527   0.00    0.0
2158 455635.000   22.304559649  114.186205262    11.3888   2   7   0.3289   0.5609   0.8159   0.2888  -0.4138   0.2917   0.00    0.0
2158 455636.000   22.304599484  114.186162043    11.2793   2   9   0.2869   0.3178   0.7706   0.1119  -0.2447   0.3445   0.00    0.0
2158 455637.000   22.304636312  114.186117770    11.2360   2   8   0.2839   0.3173   0.7612   0.1151  -0.2410   0.3404   0.00    0.0
2158 455638.000   22.304671655  114.186076352    11.2622   2   8   0.2823   0.3193   0.7529   0.1224  -0.2354   0.3375   0.00    0.0
2158 455639.000   22.304702860  114.186033449    11.3558   2   6   0.2773   0.3101   0.7456   0.1136  -0.2321   0.3345   0.00    0.0
2158 455640.000   22.304736878  114.185996324    11.3692   2   7   0.2755   0.3121   0.7380   0.1200  -0.2269   0.3318   0.00    0.0
2158 455641.000   22.304769565  114.185957674    11.4730   2   5   0.2728   0.3118   0.7337   0.1222  -0.2289   0.3274   0.00    0.0
2158 455642.000   22.304809520  114.185932674    11.6189   2   5   0.2700   0.3067   0.7247   0.1208  -0.2235   0.3241   0.00    0.0
2158 455643.000   22.304851395  114.185918383    11.8298   2   5   0.2679   0.3035   0.7167   0.1218  -0.2172   0.3217   0.00    0.0
2158 455644.000   22.304893290  114.185923626    11.8792   2   6   0.2650   0.2990   0.7085   0.1200  -0.2130   0.3184   0.00    0.0
2158 455645.000   22.304930033  114.185944738    11.8443   2   8   0.2578   0.2725   0.6984   0.0938  -0.1962   0.3183   0.00    0.0
2158 455646.000   22.304961598  114.185970398    11.5977   2   5   0.6205   1.0157   0.8765   0.7500   0.6967   0.6341   0.00    0.0
2158 455647.000   22.304984121  114.186011962    10.6219   4   2   1.0045   1.1955   1.5861  -0.4535   0.7580   1.0728   0.00    0.0
2158 455648.000   22.305005340  114.186060595     9.6153   2   4   1.2910   1.1591   2.7244  -0.5427   0.8351   1.6936   0.00    0.0
2158 455649.000   22.305001335  114.186142765     5.6002   4   2   1.5457   1.2878   3.5124  -0.7992   0.5732   2.1561   0.00    0.0
2158 455650.000   22.304985713  114.186167790     4.7698   4   0   1.7369   1.5337   3.9209  -0.3769  -0.8438   2.1109   0.00    0.0
2158 455651.000   22.305011004  114.186170660    10.2022   4   0   1.7649   1.6407   4.0892  -0.3853  -0.9755   2.0839   0.00    0.0
2158 455652.000   22.305084409  114.186182744    18.9112   4   0   1.7467   1.4975   4.0027   0.2589  -0.4848   2.0306   0.00    0.0
2158 455653.000   22.305151963  114.186230629    26.1592   4   0   1.7437   1.4691   3.8263   0.3576   0.3815   1.9892   0.00    0.0
2158 455654.000   22.305198754  114.186275238    26.4296   4   0   1.7415   1.4681   3.8007   0.3625   0.4021   1.9793   0.00    0.0
2158 455655.000   22.305237161  114.186334329    27.2847   4   0   1.7421   1.4596   3.9720  -0.3837  -0.3983   2.1099   0.00    0.0
2158 455656.000   22.305264384  114.186439021    19.0799   4   0   1.7744   1.5934   3.9418  -0.2514  -0.6236   2.0696   0.00    0.0
2158 455657.000   22.305267726  114.186464614    10.1372   4   0   1.9434   1.6185   4.1775  -0.5131  -0.8727   2.3189   0.00    0.0
2158 455658.000   22.305250007  114.186468221     2.0939   4   0   1.7888   1.6002   3.9822  -0.2722  -0.6606   2.0985   0.00    0.0
2158 455659.000   22.305273314  114.186479304    -0.1892   4   0   1.7500   1.4967   3.8605   0.3114   0.4933   1.9891   0.00    0.0
2158 455660.000   22.305385249  114.186406419     9.0371   4   2   1.7008   1.4062   3.8973   0.4388   0.7138   1.9718   0.00    0.0
2158 455661.000   22.305457355  114.186327823     8.8695   2   5   1.7194   1.4922   4.0754   0.3637   0.2243   1.9843   0.00    0.0
2158 455662.000   22.305457799  114.186299264     7.1852   4   2   1.4025   1.5679   4.1378   0.9035  -0.6323   1.6454   0.00    0.0
2158 455663.000   22.305468604  114.186279771     8.6358   4   2   1.3394   1.7214   4.2445   1.1495  -0.9547   1.2435   0.00    0.0
2158 455664.000   22.305494964  114.186268200     9.8489   4   2   1.7396   1.7631   4.2341   0.9970  -1.1206   1.5424   0.00    0.0
2158 455665.000   22.305514995  114.186234729    10.2687   4   2   1.8379   1.7696   4.2881   0.9557  -1.1669   1.6985   0.00    0.0
2158 455666.000   22.305544874  114.186208067     9.0022   4   0   1.8453   1.7707   4.3230   0.9538  -1.1688   1.7143   0.00    0.0
2158 455667.000   22.305581039  114.186177398     6.7633   4   0   1.8468   1.7707   4.3349   0.9537  -1.1693   1.7126   0.00    0.0
2158 455668.000   22.305614523  114.186108986     3.7982   4   2   1.8417   1.7468   4.3178   0.9079  -1.2215   1.6629   0.00    0.0
2158 455669.000   22.305618260  114.186013093    15.8798   4   0   1.8483   2.0374   4.6655   0.9370  -1.6945   1.6942   0.00    0.0
2158 455670.000   22.305628149  114.185844239    38.6018   4   2   2.1226   3.2081   5.5399   1.6896  -2.3978   1.9557   0.00    0.0
2158 455671.000   22.305661140  114.185785730    62.8397   4   2   2.1806   3.4187   5.7703   1.7969  -2.6637   2.0350   0.00    0.0
2158 455672.000   22.305712272  114.185769638    75.0679   4   2   2.1706   3.4311   5.8209   1.7921  -2.7063   2.0562   0.00    0.0
2158 455673.000   22.305777673  114.185867796    74.9555   2   4   1.4175   2.3965   4.6841   1.3885  -2.1080   1.1661   0.00    0.0
2158 455674.000   22.305843309  114.185879954    78.6348   4   0   1.7692   2.5885   5.0926   0.9815  -2.5858   1.7032   0.00    0.0
2158 455675.000   22.305867535  114.185897051    77.9389   4   0   1.8546   2.6770   5.5100   0.8941  -2.8540   1.7998   0.00    0.0
2158 455676.000   22.305895913  114.185909995    70.9526   4   0   1.8509   2.7050   5.7389   0.8747  -2.9679   1.8274   0.00    0.0
2158 455677.000   22.306066987  114.186205139    25.7848   4   0   2.1848   3.5376   6.7010   1.8369  -4.0740  -0.6991   0.00    0.0
2158 455678.000   22.306199844  114.186457208   -23.5378   4   0   2.5359   3.8558   7.1769   2.1995  -4.5480  -1.8220   0.00    0.0
2158 455679.000   22.306307722  114.186617753   -61.1772   4   0   2.6237   3.9788   7.6352   2.3318  -4.8176  -2.2176   0.00    0.0
2158 455680.000   22.306256536  114.186577121   -72.4536   4   0   2.6061   4.6306   7.4479   2.7342  -4.7135  -1.5064   0.00    0.0
2158 455681.000   22.306210907  114.186451091   -49.8858   4   2   2.5670   4.5195   6.3534   2.6440  -4.0610   0.8472   0.00    0.0
2158 455682.000   22.306227386  114.186392857   -33.1675   4   2   2.5679   4.4565   6.1921   2.6372  -3.9043   0.8725   0.00    0.0
2158 455683.000   22.306270156  114.186365743   -16.6475   4   2   2.5639   4.4499   6.0731   2.6495  -3.8621   0.8733   0.00    0.0
2158 455684.000   22.306323345  114.186326507    -6.7440   4   0   2.5698   4.4560   5.9801   2.6467  -3.8488   0.9606   0.00    0.0
2158 455685.000   22.306277727  114.186081167    17.1808   4   0   2.2026   3.5291   5.5226   1.8478  -2.9452   1.9653   0.00    0.0
2158 455686.000   22.306302765  114.185977134    37.5999   4   0   2.3642   3.4982   6.0932   1.6360  -3.0805   2.5324   0.00    0.0
2158 455687.000   22.306329305  114.185926258    48.9178   4   0   2.3951   3.5193   6.4065   1.5914  -3.1719   2.6658   0.00    0.0
2158 455688.000   22.306330333  114.185883861    52.7725   4   0   2.3966   3.5215   6.4891   1.5754  -3.2047   2.6946   0.00    0.0
2158 455689.000   22.306336101  114.185819765    57.7535   4   0   2.3969   3.5197   6.4953   1.5729  -3.2052   2.6983   0.00    0.0
2158 455690.000   22.306345724  114.185737446    62.1309   4   0   2.0541   2.8733   6.4716  -0.1754  -3.3635   2.5752   0.00    0.0
2158 455691.000   22.306299783  114.185560410    66.2264   4   0   2.0377   2.8538   6.4702  -0.3427  -3.3766   2.5636   0.00    0.0
2158 455692.000   22.306198224  114.185261744    62.7524   2   4   2.0298   2.8009   6.4561  -0.4562  -3.3893   2.5541   0.00    0.0
2158 455693.000   22.306204606  114.185126809    78.1796   4   0   2.2615   3.0473   6.0249  -1.1292  -3.7599   2.8725   0.00    0.0
2158 455694.000   22.306211963  114.185089131    77.5466   4   2   1.9637   2.7505   4.7544   0.1293  -3.0983   2.0801   0.00    0.0
2158 455695.000   22.306243869  114.185049714    79.2835   4   0   2.0868   2.8115   4.6320  -0.5098  -3.1049   2.2114   0.00    0.0
2158 455696.000   22.306253325  114.185018926    78.4452   4   2   2.0932   2.7398   4.4151  -0.5411  -2.9930   2.1826   0.00    0.0
2158 455697.000   22.306222045  114.184973846    75.9155   2   4   2.0659   2.7686   4.2255  -0.3525  -2.9459   2.0777   0.00    0.0
2158 455698.000   22.306246682  114.184915170    77.5954   2   4   2.0468   3.2604   4.7377   1.7057  -2.9217   1.8963   0.00    0.0
2158 455699.000   22.306304633  114.184919352    77.9998   4   3   2.2105   3.3253   4.4441   1.5922  -3.2053   1.7910   0.00    0.0
2158 455700.000   22.306339938  114.184904243    80.8906   2   4   1.8686   3.2474   4.1170   1.9819  -2.5701   0.8891   0.00    0.0
2158 455701.000   22.306335517  114.184901729    70.4229   2   4   1.6338   2.7906   3.6738   1.7394  -0.8148   1.7357   0.00    0.0
2158 455702.000   22.306347114  114.184913457    66.3070   4   2   1.6990   2.8792   3.3685   1.9226   0.4606   1.6672   0.00    0.0
2158 455703.000   22.306374167  114.184948176    63.2557   4   2   1.3747   2.3244   3.7737   1.4875  -1.6745   0.8358   0.00    0.0
2158 455704.000   22.306363000  114.184911104    57.5695   4   2   1.3535   2.3308   4.2288   1.5224  -1.9225  -0.1740   0.00    0.0
2158 455705.000   22.306387711  114.184945307    46.9616   2   4   1.5127   2.6565   4.1753   1.8137  -1.4685   0.7804   0.00    0.0
2158 455706.000   22.306373892  114.184909756    52.5218   2   4   1.2979   2.2770   3.2461   1.5207  -2.0397  -0.8868   0.00    0.0
2158 455707.000   22.306367318  114.184895161    52.0070   2   4   1.1989   2.0993   2.9228   1.3934  -1.7199  -0.5349   0.00    0.0
2158 455708.000   22.306358382  114.184881299    50.3348   2   5   1.1447   2.0057   2.6553   1.3325  -1.7425  -0.6808   0.00    0.0
2158 455709.000   22.306357629  114.184886123    47.9514   2   5   0.8281   1.4081   2.3755   0.8319  -1.3457   0.3209   0.00    0.0
2158 455710.000   22.306357260  114.184889652    46.0835   2   5   0.7344   1.2140   2.2177   0.6689  -1.1968   0.4879   0.00    0.0
2158 455711.000   22.306355694  114.184891186    44.3241   2   5   0.6803   1.1030   2.1036   0.5765  -1.1133   0.5317   0.00    0.0
2158 455712.000   22.306354787  114.184894636    42.7690   2   5   0.6404   1.0224   2.0095   0.5097  -1.0512   0.5503   0.00    0.0
2158 455713.000   22.306353873  114.184897645    41.5869   2   5   0.6083   0.9588   1.9292   0.4571  -1.0012   0.5583   0.00    0.0
2158 455714.000   22.306359086  114.184906898    40.6522   2   5   0.8593   1.4765   1.9928   0.9527  -1.3202  -0.3533   0.00    0.0
2158 455715.000   22.306359814  114.184906948    40.3667   2   5   0.6268   1.0211   1.8450   0.5442  -1.0295   0.4664   0.00    0.0
2158 455716.000   22.306363428  114.184911780    39.9228   2   5   0.5886   0.9390   1.7904   0.4671  -0.9725   0.5112   0.00    0.0
2158 455717.000   22.306366540  114.184915175    39.6290   2   5   0.5640   0.8866   1.7473   0.4175  -0.9372   0.5300   0.00    0.0
2158 455718.000   22.306369544  114.184919180    39.3315   2   5   0.5439   0.8440   1.7090   0.3763  -0.9083   0.5419   0.00    0.0
2158 455719.000   22.306372058  114.184921732    39.2127   2   5   0.5268   0.8079   1.6743   0.3405  -0.8833   0.5498   0.00    0.0
2158 455720.000   22.306373911  114.184922367    39.3708   2   6   0.5118   0.7769   1.6426   0.3090  -0.8617   0.5549   0.00    0.0
2158 455721.000   22.306376184  114.184924113    39.3285   2   6   0.4981   0.7492   1.6119   0.2794  -0.8412   0.5594   0.00    0.0
2158 455722.000   22.306378131  114.184925265    39.4318   2   5   0.4871   0.7260   1.5865   0.2554  -0.8254   0.5592   0.00    0.0
2158 455723.000   22.306380627  114.184926929    39.3590   2   5   0.4823   0.7209   1.5583   0.2553  -0.8094   0.5607   0.00    0.0
2158 455724.000   22.306384312  114.184923524    39.4719   2   6   0.4665   0.6875   1.5360   0.2107  -0.7959   0.5606   0.00    0.0
2158 455725.000   22.306389747  114.184915232    38.8873   2   5   0.4557   0.6713   1.5120   0.1974  -0.7844   0.5500   0.00    0.0
2158 455726.000   22.306396265  114.184894178    38.1590   2   4   1.1670   0.6563   1.6676  -0.1151  -0.7912   1.0542   0.00    0.0
2158 455727.000   22.306423370  114.184861913    38.2985   2   5   0.4325   0.6414   1.4476   0.1723  -0.7571   0.5250   0.00    0.0
2158 455728.000   22.306449366  114.184825912    37.2647   4   3   0.4679   0.7443   1.7896   0.3292  -0.9986   0.1727   0.00    0.0
2158 455729.000   22.306477333  114.184788062    36.7773   2   5   0.4032   0.6027   1.3722   0.1201  -0.7187   0.5057   0.00    0.0
2158 455730.000   22.306526401  114.184789771    33.5773   4   2   0.7841   1.3790   1.5623   0.9260  -1.2198  -0.5443   0.00    0.0
2158 455731.000   22.306556447  114.184755357    33.0007   2   4   0.8937   1.5037   1.5111   1.0663  -1.2443  -0.6418   0.00    0.0
2158 455732.000   22.306572223  114.184699717    34.3692   2   4   0.5869   0.8897   1.2582   0.5776  -0.7772   0.2693   0.00    0.0
2158 455733.000   22.306600354  114.184684610    32.0444   2   5   0.5166   0.6976   1.1541   0.4349  -0.5978   0.4159   0.00    0.0
2158 455734.000   22.306621115  114.184667152    30.3470   2   7   0.4810   0.6216   1.1103   0.3702  -0.5338   0.4422   0.00    0.0
2158 455735.000   22.306636971  114.184649882    29.0949   2   7   0.4554   0.5675   1.0760   0.3237  -0.4877   0.4538   0.00    0.0
2158 455736.000   22.306650224  114.184639904    27.8599   2   7   0.4398   0.5471   1.0545   0.3032  -0.4646   0.4543   0.00    0.0
2158 455737.000   22.306658443  114.184623327    27.6368   2   6   0.4273   0.5365   1.0410   0.2911  -0.4648   0.4438   0.00    0.0
2158 455738.000   22.306666286  114.184615100    27.4441   2   7   0.4142   0.5113   1.0166   0.2725  -0.4432   0.4393   0.00    0.0
2158 455739.000   22.306668763  114.184604276    27.6053   2   7   0.3987   0.4717   0.9823   0.2442  -0.4009   0.4405   0.00    0.0
2158 455740.000   22.306670187  114.184604028    26.8035   2   7   0.3852   0.4366   0.9496   0.2197  -0.3606   0.4402   0.00    0.0
2158 455741.000   22.306670907  114.184610137    25.6635   2   7   0.3761   0.4080   0.9191   0.2044  -0.3220   0.4380   0.00    0.0
2158 455742.000   22.306670253  114.184614911    24.4548   2   7   0.3685   0.3793   0.8939   0.1896  -0.2841   0.4374   0.00    0.0
2158 455743.000   22.306669081  114.184617831    23.4705   2   9   0.3623   0.3619   0.8737   0.1819  -0.2574   0.4343   0.00    0.0
2158 455744.000   22.306668456  114.184620606    22.7305   2   7   0.3552   0.3467   0.8558   0.1728  -0.2395   0.4289   0.00    0.0
2158 455745.000   22.306667648  114.184623197    22.0198   2   9   0.3482   0.3331   0.8386   0.1646  -0.2225   0.4235   0.00    0.0
2158 455746.000   22.306667139  114.184625632    21.3898   2   8   0.3419   0.3220   0.8231   0.1581  -0.2086   0.4179   0.00    0.0
2158 455747.000   22.306666683  114.184627968    20.8595   2   9   0.3361   0.3118   0.8090   0.1521  -0.1958   0.4128   0.00    0.0
2158 455748.000   22.306666253  114.184629755    20.3850   2  10   0.3304   0.3021   0.7954   0.1462  -0.1835   0.4076   0.00    0.0
2158 455749.000   22.306665558  114.184631276    19.9391   2   8   0.3249   0.2937   0.7824   0.1410  -0.1735   0.4022   0.00    0.0
2158 455750.000   22.306664996  114.184632660    19.5702   2   9   0.3196   0.2860   0.7704   0.1363  -0.1640   0.3971   0.00    0.0
2158 455751.000   22.306664515  114.184633778    19.2580   2   8   0.3147   0.2789   0.7590   0.1319  -0.1552   0.3921   0.00    0.0
2158 455752.000   22.306664084  114.184634495    18.9422   2   9   0.3090   0.2720   0.7480   0.1265  -0.1478   0.3869   0.00    0.0
2158 455753.000   22.306663294  114.184634334    18.6040   2   9   0.3045   0.2665   0.7384   0.1236  -0.1379   0.3829   0.00    0.0
2158 455754.000   22.306662410  114.184634719    18.1917   2   8   0.2993   0.2598   0.7276   0.1193  -0.1293   0.3776   0.00    0.0
2158 455755.000   22.306661463  114.184634756    17.7973   2   8   0.2943   0.2537   0.7174   0.1153  -0.1211   0.3726   0.00    0.0
2158 455756.000   22.306660451  114.184634453    17.4106   2   9   0.2895   0.2479   0.7076   0.1115  -0.1135   0.3677   0.00    0.0
2158 455757.000   22.306659487  114.184633864    17.0767   2   9   0.2848   0.2425   0.6982   0.1080  -0.1063   0.3629   0.00    0.0
2158 455758.000   22.306658430  114.184633071    16.7583   2   9   0.2804   0.2376   0.6892   0.1047  -0.0994   0.3582   0.00    0.0
2158 455759.000   22.306657363  114.184632216    16.4836   2  10   0.2761   0.2328   0.6810   0.1016  -0.0928   0.3539   0.00    0.0
2158 455760.000   22.306656351  114.184631151    16.2211   2  10   0.2719   0.2284   0.6726   0.0986  -0.0867   0.3494   0.00    0.0
2158 455761.000   22.306655245  114.184629973    16.0051   2  11   0.2678   0.2243   0.6645   0.0957  -0.0807   0.3451   0.00    0.0
2158 455762.000   22.306654237  114.184629019    15.8182   2   8   0.2636   0.2206   0.6567   0.0929  -0.0747   0.3408   0.00    0.0
2158 455763.000   22.306653441  114.184627938    15.6764   2   8   0.2595   0.2165   0.6490   0.0900  -0.0700   0.3364   0.00    0.0
2158 455764.000   22.306652840  114.184626960    15.5730   2   8   0.2555   0.2129   0.6415   0.0873  -0.0649   0.3321   0.00    0.0
2158 455765.000   22.306651827  114.184626117    15.3787   2   8   0.2518   0.2098   0.6348   0.0843  -0.0622   0.3282   0.00    0.0
2158 455766.000   22.306651401  114.184625616    15.2567   2   8   0.2480   0.2071   0.6283   0.0814  -0.0590   0.3245   0.00    0.0
2158 455767.000   22.306651382  114.184625495    15.2503   2   8   0.2450   0.2044   0.6231   0.0796  -0.0539   0.3214   0.00    0.0
2158 455768.000   22.306650716  114.184625019    15.1147   2   9   0.2417   0.2016   0.6164   0.0771  -0.0518   0.3176   0.00    0.0
2158 455769.000   22.306650249  114.184624667    14.9876   2   9   0.2386   0.1991   0.6100   0.0751  -0.0478   0.3142   0.00    0.0
2158 455770.000   22.306650323  114.184624983    15.0077   2   9   0.2358   0.1972   0.6048   0.0737  -0.0409   0.3115   0.00    0.0
2158 455771.000   22.306650553  114.184625257    15.0155   2   9   0.2334   0.1949   0.5998   0.0729  -0.0330   0.3089   0.00    0.0
2158 455772.000   22.306650553  114.184625668    15.0426   2   9   0.2311   0.1932   0.5950   0.0719  -0.0230   0.3066   0.00    0.0
2158 455773.000   22.306650201  114.184625857    14.9853   2   8   0.2291   0.1913   0.5905   0.0713   0.0049   0.3044   0.00    0.0
2158 455774.000   22.306649712  114.184626093    14.9350   2   8   0.2273   0.1897   0.5860   0.0712   0.0248   0.3023   0.00    0.0
2158 455775.000   22.306649015  114.184625965    14.7336   2   8   0.2250   0.1876   0.5803   0.0694   0.0294   0.2995   0.00    0.0
2158 455776.000   22.306648231  114.184625686    14.4976   2   8   0.2223   0.1852   0.5753   0.0668   0.0314   0.2969   0.00    0.0
2158 455777.000   22.306647439  114.184625267    14.3072   2   9   0.2197   0.1831   0.5711   0.0646   0.0323   0.2943   0.00    0.0
